[
    {
        "locationId":1,
        "name":"Speedway #7965 D",
        "address1": "US 321",
        "address2": "140 US Hwy 321",
        "city": "Hickory",
        "state": "NC",
        "zipCode": "28601",
        "latitude": 40.734,
        "longitude": -81.3648,
        "regularPrice": "2.819",
        "memberPrice": "2.605"
    },
    {
        "locationId":2,
        "name":"Gas Way #3467",
        "address1": "I-55 Exit 61 @ 900 Ave G",
        "address2": "900 Avenue G",
        "city": "Kentwood",
        "state": "LA",
        "zipCode": "70444-2635",
        "latitude": 30.9366,
        "longitude": -90.5228,
        "regularPrice": "2.899",
        "memberPrice": "2.384"
    },
    {
        "locationId":1,
        "name":"Disie Express #3467",
        "address1": "I-55 Exit 61 @ 900 Ave G",
        "address2": "900 Avenue G",
        "city": "Kentwood",
        "state": "LA",
        "zipCode": "70444-2635",
        "latitude": 35.734,
        "longitude": -71.3648,
        "regularPrice": "2.899",
        "memberPrice": "2.384"
    },
    {
        "locationId":2,
        "name":"Gassie Express #3467",
        "address1": "I-55 Exit 61 @ 900 Ave G",
        "address2": "900 Avenue G",
        "city": "Kentwood",
        "state": "LA",
        "zipCode": "70444-2635",
        "latitude": 30.9366,
        "longitude": -70.5228,
        "regularPrice": "2.899",
        "memberPrice": "2.384"
    },
    {
        "locationId":1,
        "name":"Speedway #7965 D",
        "address1": "US 321",
        "address2": "140 US Hwy 321",
        "city": "Hickory",
        "state": "NC",
        "zipCode": "28601",
        "latitude": 40.734,
        "longitude": -81.3648,
        "regularPrice": "2.819",
        "memberPrice": "2.605"
    },
    {
        "locationId":2,
        "name":"Gas Way #3467",
        "address1": "I-55 Exit 61 @ 900 Ave G",
        "address2": "900 Avenue G",
        "city": "Kentwood",
        "state": "LA",
        "zipCode": "70444-2635",
        "latitude": 30.9366,
        "longitude": -90.5228,
        "regularPrice": "2.899",
        "memberPrice": "2.384"
    },
    {
        "locationId":1,
        "name":"Disie Express #3467",
        "address1": "I-55 Exit 61 @ 900 Ave G",
        "address2": "900 Avenue G",
        "city": "Kentwood",
        "state": "LA",
        "zipCode": "70444-2635",
        "latitude": 35.734,
        "longitude": -71.3648,
        "regularPrice": "2.899",
        "memberPrice": "2.384"
    },
    {
        "locationId":2,
        "name":"Gassie Express #3467",
        "address1": "I-55 Exit 61 @ 900 Ave G",
        "address2": "900 Avenue G",
        "city": "Kentwood",
        "state": "LA",
        "zipCode": "70444-2635",
        "latitude": 30.9366,
        "longitude": -70.5228,
        "regularPrice": "2.899",
        "memberPrice": "2.384"
    }
]